[{"id":"1","name":"O-Ren Ishii","nickname":"Cottonmouth","pic":"media\/O-Ren.jpg","latitude":"37.9405450","longitude":"23.9477180","isAlive":"1"},{"id":"2","name":"Vernita Green","nickname":"Copperhead","pic":"media\/Vernita_Green.jpg","latitude":"38.0692110","longitude":"23.5572150","isAlive":"1"},{"id":"3","name":"Budd","nickname":"Sidewinder","pic":"media\/Budd.gif","latitude":"38.1165830","longitude":"23.7857330","isAlive":"0"},{"id":"4","name":"Elle Driver","nickname":"California Mountain Snake","pic":"media\/Elle_Driver.jpg","latitude":"38.9660810","longitude":"24.4849170","isAlive":"0"},{"id":"5","name":"Bill","nickname":"Snake Charmer","pic":"media\/Bill.jpg","latitude":"37.9814800","longitude":"23.7770720","isAlive":"1"}]
